{"type":"Topology","arcs":[],"objects":{"Updated effigy":{"type":"GeometryCollection","geometries":[{"type":"Point","coordinates":[-90.878687,42.695651],"properties":{"Site Name":"Aves","County":"Grant","Sum":40,"status":"destroyed","protection":"unprotected"}},{"type":"Point","coordinates":[-91.101,42.905],"properties":{"Site Name":"Bagley","County":"Grant","Sum":21,"status":"destroyed","protection":"unprotected"}},{"type":"Point","coordinates":[-91.07,42.892],"properties":{"Site Name":"Bagley Bluffs","County":"Grant","Sum":3,"status":"destroyed","protection":"unprotected"}},{"type":"Point","coordinates":[-91.119,42.992],"properties":{"Site Name":"Ballfield","County":"Grant","Sum":2,"status":"partially destroyed","protection":"unprotected"}},{"type":"Point","coordinates":[-91.047,42.992],"properties":{"Site Name":"Banfill","County":"Grant","Sum":6,"status":"destroyed","protection":"unprotected"}},{"type":"Point","coordinates":[-90.941,43.049],"properties":{"Site Name":"Bird Mound (Schlundt)","County":"Grant","Sum":1,"status":"destroyed","protection":"unprotected"}},{"type":"Point","coordinates":[-90.846,42.792],"properties":{"Site Name":"Bird Mound (Hughes)","County":"Grant","Sum":1,"status":"destroyed","protection":"unprotected"}},{"type":"Point","coordinates":[-90.738,42.709],"properties":{"Site Name":"Burr Oak Farm","County":"Grant","Sum":5,"status":"destroyed","protection":"unprotected"}},{"type":"Point","coordinates":[-90.902,42.708],"properties":{"Site Name":"C-07","County":"Grant","Sum":9,"status":"unknown","protection":"unprotected"}},{"type":"Point","coordinates":[-90.936,42.7],"properties":{"Site Name":"C-08","County":"Grant","Sum":2,"status":"unknown","protection":"unprotected"}},{"type":"Point","coordinates":[-90.771,42.675],"properties":{"Site Name":"Cammack","County":"Grant","Sum":1,"status":"intact","protection":"unprotected"}},{"type":"Point","coordinates":[-90.835,42.778],"properties":{"Site Name":"Conical","County":"Grant","Sum":8,"status":"unknown","protection":"unprotected"}},{"type":"Point","coordinates":[-91.066,42.794],"properties":{"Site Name":"Eagle Valley #2","County":"Grant","Sum":1,"status":"intact ","protection":"protected"}},{"type":"Point","coordinates":[-91.066,42.786],"properties":{"Site Name":"Eagle Valley #3","County":"Grant","Sum":55,"status":"intact","protection":"unprotected"}},{"type":"Point","coordinates":[-90.844,42.722],"properties":{"Site Name":"Eckstein-Ploessi","County":"Grant","Sum":15,"status":"unknown","protection":"unprotected"}},{"type":"Point","coordinates":[-91.086,42.89],"properties":{"Site Name":"Elephant","County":"Grant","Sum":6,"status":"unknown","protection":"unprotected"}},{"type":"Point","coordinates":[-90.489,43.179],"properties":{"Site Name":"English Prairie","County":"Grant","Sum":102,"status":"unknown","protection":"unprotected"}},{"type":"Point","coordinates":[-90.651,42.576],"properties":{"Site Name":"Fenley","County":"Grant","Sum":3,"status":"intact","protection":"unprotected"}},{"type":"Point","coordinates":[-91.122,42.956],"properties":{"Site Name":"Gifford","County":"Grant","Sum":1,"status":"unknown","protection":"unprotected"}},{"type":"Point","coordinates":[-90.963,42.703],"properties":{"Site Name":"Jack Oak Slough","County":"Grant","Sum":53,"status":"destroyed","protection":"unprotected"}},{"type":"Point","coordinates":[-90.823,42.851],"properties":{"Site Name":"Little Grant River","County":"Grant","Sum":2,"status":"unkown","protection":"unprotected"}},{"type":"Point","coordinates":[-91.128,42.952],"properties":{"Site Name":"Lost Bear","County":"Grant","Sum":1,"status":"unknown","protection":"unprotected"}},{"type":"Point","coordinates":[-90.859,42.686],"properties":{"Site Name":"McCartney","County":"Grant","Sum":3,"status":"unknown","protection":"unprotected"}},{"type":"Point","coordinates":[-90.85,42.684],"properties":{"Site Name":"McCartney (Ridge)","County":"Grant","Sum":2,"status":"unknown","protection":"unprotected"}},{"type":"Point","coordinates":[-90.813,42.851],"properties":{"Site Name":"McLean","County":"Grant","Sum":2,"status":"intact","protection":"unprotected"}},{"type":"Point","coordinates":[-91.119,42.956],"properties":{"Site Name":"Meng","County":"Grant","Sum":1,"status":"unknown","protection":"unprotected"}},{"type":"Point","coordinates":[-90.438,43.196],"properties":{"Site Name":"Muscoda","County":"Grant","Sum":39,"status":"intact","protection":"unprotected"}},{"type":"Point","coordinates":[-90.83,42.762],"properties":{"Site Name":"Nick Adams","County":"Grant","Sum":47,"status":"unknown","protection":"unprotected"}},{"type":"Point","coordinates":[-90.659,42.582],"properties":{"Site Name":"Palmer Wanders","County":"Grant","Sum":1,"status":"unknown","protection":"unprotected"}},{"type":"Point","coordinates":[-91.069,42.781],"properties":{"Site Name":"Panther Ridge #1/#2","County":"Grant","Sum":12,"status":"unknown","protection":"unprotected"}},{"type":"Point","coordinates":[-90.719,42.694],"properties":{"Site Name":"Potosi","County":"Grant","Sum":3,"status":"destroyed","protection":"unprotected"}},{"type":"Point","coordinates":[-91.11,42.98],"properties":{"Site Name":"Procession of Mounds","County":"Grant","Sum":26,"status":"intact ","protection":"protected"}},{"type":"Point","coordinates":[-90.87,42.758],"properties":{"Site Name":"Raisbeck","County":"Grant","Sum":82,"status":"unknown","protection":"unprotected"}},{"type":"Point","coordinates":[-90.988,42.711],"properties":{"Site Name":"Riverside Park","County":"Grant","Sum":2,"status":"partially destroyed","protection":"unprotected"}},{"type":"Point","coordinates":[-91.135,42.965],"properties":{"Site Name":"Robert Glenn","County":"Grant","Sum":14,"status":"intact ","protection":"protected"}},{"type":"Point","coordinates":[-90.722,43.137],"properties":{"Site Name":"Sander's Creek","County":"Grant","Sum":9,"status":"unknown","protection":"unprotected"}},{"type":"Point","coordinates":[-91.068,42.981],"properties":{"Site Name":"Schnee","County":"Grant","Sum":1,"status":"unknown","protection":"unprotected"}},{"type":"Point","coordinates":[-91.124,42.983],"properties":{"Site Name":"Sentinel Ridge","County":"Grant","Sum":28,"status":"intact","protection":"unprotected"}},{"type":"Point","coordinates":[-90.928,43.029],"properties":{"Site Name":"Singular","County":"Grant","Sum":1,"status":"destroyed","protection":"unprotected"}},{"type":"Point","coordinates":[-90.817,42.839],"properties":{"Site Name":"Ski Jump","County":"Grant","Sum":5,"status":"intact","protection":"unprotected"}},{"type":"Point","coordinates":[-91.14,42.995],"properties":{"Site Name":"South Point","County":"Grant","Sum":4,"status":"destroyed","protection":"unprotected"}},{"type":"Point","coordinates":[-91.116,42.972],"properties":{"Site Name":"Spook Hill","County":"Grant","Sum":5,"status":"unknown","protection":"unprotected"}},{"type":"Point","coordinates":[-91.045,42.75],"properties":{"Site Name":"Tertiary","County":"Grant","Sum":4,"status":"unknown","protection":"unprotected"}},{"type":"Point","coordinates":[-90.844,42.686],"properties":{"Site Name":"Uddelhoven #1","County":"Grant","Sum":3,"status":"partially destroyed","protection":"unprotected"}},{"type":"Point","coordinates":[-90.909,42.702],"properties":{"Site Name":"Uppena #1","County":"Grant","Sum":27,"status":"unknown","protection":"unprotected"}},{"type":"Point","coordinates":[-90.926,42.703],"properties":{"Site Name":"Uppena #2","County":"Grant","Sum":1,"status":"partially destroyed","protection":"unprotected"}},{"type":"Point","coordinates":[-90.886,42.71],"properties":{"Site Name":"Ursus","County":"Grant","Sum":59,"status":"destroyed","protection":"unprotected"}},{"type":"Point","coordinates":[-90.888,42.69],"properties":{"Site Name":"WA 12","County":"Grant","Sum":6,"status":"destroyed","protection":"unprotected"}},{"type":"Point","coordinates":[-91.136,42.949],"properties":{"Site Name":"Wyalusing A","County":"Grant","Sum":1,"status":"destroyed","protection":"unprotected"}},{"type":"Point","coordinates":[-91.136,42.943],"properties":{"Site Name":"Wyalusing","County":"Grant","Sum":2,"status":"destroyed","protection":"unprotected"}},{"type":"Point","coordinates":[-90.774,42.685],"properties":{"Site Name":"Yearous","County":"Grant","Sum":7,"status":"unknown","protection":"unprotected"}},{"type":"Point","coordinates":[-90.329,42.817],"properties":{"Site Name":"Cushman","County":"Iowa","Sum":2,"status":"destroyed","protection":"unprotected"}},{"type":"Point","coordinates":[-90.039,42.905],"properties":{"Site Name":"Fitzimmons","County":"Iowa","Sum":4,"status":"intact","protection":"unprotected"}},{"type":"Point","coordinates":[-90.334,42.829],"properties":{"Site Name":"Peniel Church","County":"Iowa","Sum":10,"status":"intact","protection":"unprotected"}},{"type":"Point","coordinates":[-89.865,43.153],"properties":{"Site Name":"Sawle","County":"Iowa","Sum":2,"status":"unknown","protection":"unprotected"}},{"type":"Point","coordinates":[-90.192,43.161],"properties":{"Site Name":"Sider-Culver","County":"Iowa","Sum":19,"status":"intact","protection":"unprotected"}},{"type":"Point","coordinates":[-90.356,43.203],"properties":{"Site Name":"Siamese Birds","County":"Iowa","Sum":3,"status":"partially destroyed","protection":"unprotected"}},{"type":"Point","coordinates":[-90.403,43.197],"properties":{"Site Name":"Whatsit","County":"Iowa","Sum":3,"status":"intact","protection":"unprotected"}},{"type":"Point","coordinates":[-90.329,43.206],"properties":{"Site Name":"Wolf Trap","County":"Iowa","Sum":13,"status":"unknown","protection":"unprotected"}},{"type":"Point","coordinates":[-89.866,42.58],"properties":{"Site Name":"Anderson","County":"Lafayette","Sum":28,"status":"unknown","protection":"unprotected"}},{"type":"Point","coordinates":[-90.067,42.66],"properties":{"Site Name":"Kerber","County":"Lafayette","Sum":16,"status":"intact","protection":"unprotected"}},{"type":"Point","coordinates":[-89.407,43.069],"properties":{"Site Name":"Adams Street Bear","County":"Dane","Sum":2,"status":"destroyed","protection":"unprotected"}},{"type":"Point","coordinates":[-89.429,43.047],"properties":{"Site Name":"Arboretum Woods","County":"Dane","Sum":12,"status":"partially destroyed","protection":"unprotected"}},{"type":"Point","coordinates":[-89.394,43.134],"properties":{"Site Name":"B-25","County":"Dane","Sum":2,"status":"intact","protection":"unprotected"}},{"type":"Point","coordinates":[-89.681,43.276],"properties":{"Site Name":"Ballweg","County":"Dane","Sum":2,"status":"intact","protection":"unprotected"}},{"type":"Point","coordinates":[-89.284,42.958],"properties":{"Site Name":"Barber","County":"Dane","Sum":85,"status":"unknown","protection":"unprotected"}},{"type":"Point","coordinates":[-89.479,43.107],"properties":{"Site Name":"Baskerville Park","County":"Dane","Sum":26,"status":"partially destroyed","protection":"unprotected"}},{"type":"Point","coordinates":[-89.306,43.001],"properties":{"Site Name":"Bird","County":"Dane","Sum":1,"status":"destroyed","protection":"unprotected"}},{"type":"Point","coordinates":[-89.749,43.135],"properties":{"Site Name":"Black Earth","County":"Dane","Sum":1,"status":"intact","protection":"unprotected"}},{"type":"Point","coordinates":[-89.453,43.08],"properties":{"Site Name":"Blackhawk Country Club","County":"Dane","Sum":12,"status":"partially destroyed","protection":"unprotected"}},{"type":"Point","coordinates":[-89.681,43.025],"properties":{"Site Name":"Blue Mounds #1","County":"Dane","Sum":16,"status":"destroyed","protection":"unprotected"}},{"type":"Point","coordinates":[-89.824,43.013],"properties":{"Site Name":"Blue Mounds #2","County":"Dane","Sum":3,"status":"partially destroyed","protection":"unprotected"}},{"type":"Point","coordinates":[-89.532,43.082],"properties":{"Site Name":"Blue Mounds Trail","County":"Dane","Sum":2,"status":"unknown","protection":"unprotected"}},{"type":"Point","coordinates":[-89.34,43.049],"properties":{"Site Name":"Bridge Road","County":"Dane","Sum":36,"status":"unknown","protection":"unprotected"}},{"type":"Point","coordinates":[-89.357,43.024],"properties":{"Site Name":"Bryant","County":"Dane","Sum":7,"status":"destroyed","protection":"unprotected"}},{"type":"Point","coordinates":[-89.368,43.102],"properties":{"Site Name":"Burrow's Park Bird","County":"Dane","Sum":2,"status":"intact ","protection":"protected"}},{"type":"Point","coordinates":[-89.278,42.964],"properties":{"Site Name":"C. M. Colladay #1","County":"Dane","Sum":4,"status":"partially destroyed","protection":"unprotected"}},{"type":"Point","coordinates":[-89.307,43.005],"properties":{"Site Name":"Camp Leonard","County":"Dane","Sum":6,"status":"unknown","protection":"unprotected"}},{"type":"Point","coordinates":[-89.383,43.075],"properties":{"Site Name":"Capitol Park","County":"Dane","Sum":1,"status":"destroyed","protection":"unprotected"}},{"type":"Point","coordinates":[-89.275,42.962],"properties":{"Site Name":"Colladay Point","County":"Dane","Sum":13,"status":"destroyed","protection":"unprotected"}},{"type":"Point","coordinates":[-89.611,43.285],"properties":{"Site Name":"Crystal Lake","County":"Dane","Sum":5,"status":"partially destroyed","protection":"unprotected"}},{"type":"Point","coordinates":[-89.291,43.018],"properties":{"Site Name":"Dale (or Evan-Nelson)","County":"Dane","Sum":3,"status":"unknown","protection":"unprotected"}},{"type":"Point","coordinates":[-89.095,43.177],"properties":{"Site Name":"Deansville","County":"Dane","Sum":4,"status":"partially destroyed","protection":"unprotected"}},{"type":"Point","coordinates":[-89.399,43.053],"properties":{"Site Name":"Dividing Ridge","County":"Dane","Sum":34,"status":"destroyed","protection":"unprotected"}},{"type":"Point","coordinates":[-89.367,43.029],"properties":{"Site Name":"E-Way","County":"Dane","Sum":6,"status":"unknown","protection":"unprotected"}},{"type":"Point","coordinates":[-89.712,43.275],"properties":{"Site Name":"East Bank","County":"Dane","Sum":10,"status":"unknown","protection":"unprotected"}},{"type":"Point","coordinates":[-89.413,43.049],"properties":{"Site Name":"Edgewood","County":"Dane","Sum":24,"status":"intact ","protection":"unprotected"}},{"type":"Point","coordinates":[-89.306,43.029],"properties":{"Site Name":"Edward's Park","County":"Dane","Sum":11,"status":"partially destroyed","protection":"unprotected"}},{"type":"Point","coordinates":[-89.303,43.033],"properties":{"Site Name":"Eighmy","County":"Dane","Sum":4,"status":"partially destroyed","protection":"unprotected"}},{"type":"Point","coordinates":[-89.342,43.09],"properties":{"Site Name":"Elmside Park","County":"Dane","Sum":23,"status":"partially destroyed","protection":"unprotected"}},{"type":"Point","coordinates":[-89.419,43.062],"properties":{"Site Name":"Eva","County":"Dane","Sum":8,"status":"unknown","protection":"unprotected"}},{"type":"Point","coordinates":[-89.32,42.984],"properties":{"Site Name":"Evans","County":"Dane","Sum":3,"status":"partially destroyed","protection":"unprotected"}},{"type":"Point","coordinates":[-89.325,43.049],"properties":{"Site Name":"Fairhaven","County":"Dane","Sum":6,"status":"destroyed","protection":"unprotected"}},{"type":"Point","coordinates":[-89.408,43.132],"properties":{"Site Name":"Farwell's Point","County":"Dane","Sum":37,"status":"intact ","protection":"protected"}},{"type":"Point","coordinates":[-89.458,43.156],"properties":{"Site Name":"Fitzgibbon","County":"Dane","Sum":7,"status":"partially destroyed","protection":"unprotected"}},{"type":"Point","coordinates":[-89.432,43.06],"properties":{"Site Name":"Forest Hill Cemetery","County":"Dane","Sum":7,"status":"partially destroyed ","protection":"protected"}},{"type":"Point","coordinates":[-89.453,43.111],"properties":{"Site Name":"Fox's Bluff","County":"Dane","Sum":5,"status":"intact","protection":"unprotected"}},{"type":"Point","coordinates":[-89.335,43.055],"properties":{"Site Name":"Frost Woods","County":"Dane","Sum":11,"status":"partially destroyed","protection":"unprotected"}},{"type":"Point","coordinates":[-89.374,43.091],"properties":{"Site Name":"Fuller Woods","County":"Dane","Sum":48,"status":"partially destroyed","protection":"unprotected"}},{"type":"Point","coordinates":[-89.424,43.045],"properties":{"Site Name":"Gallistel Woods","County":"Dane","Sum":4,"status":"intact ","protection":"protected"}},{"type":"Point","coordinates":[-89.301,43.098],"properties":{"Site Name":"Ghost Ridge","County":"Dane","Sum":3,"status":"destroyed","protection":"unprotected"}},{"type":"Point","coordinates":[-89.351,43.03],"properties":{"Site Name":"Gilman","County":"Dane","Sum":2,"status":"destroyed","protection":"unprotected"}},{"type":"Point","coordinates":[-89.431,43.056],"properties":{"Site Name":"Glenway","County":"Dane","Sum":3,"status":"destroyed","protection":"unprotected"}},{"type":"Point","coordinates":[-89.405,43.059],"properties":{"Site Name":"Greenbush","County":"Dane","Sum":18,"status":"destroyed","protection":"unprotected"}},{"type":"Point","coordinates":[-89.316,43.128],"properties":{"Site Name":"H. P. Hall Bird","County":"Dane","Sum":1,"status":"unknown","protection":"unprotected"}},{"type":"Point","coordinates":[-89.317,43.052],"properties":{"Site Name":"Halverson/Pflaum-McWilliams","County":"Dane","Sum":15,"status":"partially destroyed ","protection":"protected"}},{"type":"Point","coordinates":[-89.226,43.032],"properties":{"Site Name":"Hanson","County":"Dane","Sum":2,"status":"intact","protection":"unprotected"}},{"type":"Point","coordinates":[-89.498,43.098],"properties":{"Site Name":"Heim","County":"Dane","Sum":1,"status":"intact ","protection":"protected"}},{"type":"Point","coordinates":[-89.694,43.258],"properties":{"Site Name":"Hornung","County":"Dane","Sum":12,"status":"partially destroyed","protection":"unprotected"}},{"type":"Point","coordinates":[-89.702,43.259],"properties":{"Site Name":"Inama","County":"Dane","Sum":3,"status":"destroyed","protection":"unprotected"}},{"type":"Point","coordinates":[-89.549,42.954],"properties":{"Site Name":"Jaggi","County":"Dane","Sum":3,"status":"unknown","protection":"unprotected"}},{"type":"Point","coordinates":[-89.421,43.059],"properties":{"Site Name":"Jefferson Street Bear","County":"Dane","Sum":1,"status":"destroyed","protection":"unprotected"}},{"type":"Point","coordinates":[-89.447,43.122],"properties":{"Site Name":"Kennedy Pond","County":"Dane","Sum":9,"status":"partially destroyed","protection":"unprotected"}},{"type":"Point","coordinates":[-89.018,42.85],"properties":{"Site Name":"Koshkonong","County":"Dane","Sum":75,"status":"destroyed","protection":"unprotected"}},{"type":"Point","coordinates":[-89.324,43.085],"properties":{"Site Name":"Lake Edge Park","County":"Dane","Sum":8,"status":"partially destroyed ","protection":"protected"}},{"type":"Point","coordinates":[-89.419,43.047],"properties":{"Site Name":"Lake Forest #2","County":"Dane","Sum":4,"status":"partially destroyed ","protection":"protected"}},{"type":"Point","coordinates":[-89.35,43.058],"properties":{"Site Name":"Lake Monona","County":"Dane","Sum":3,"status":"unknown","protection":"unprotected"}},{"type":"Point","coordinates":[-89.394,43.052],"properties":{"Site Name":"Lakeside Hotel","County":"Dane","Sum":2,"status":"destroyed","protection":"unprotected"}},{"type":"Point","coordinates":[-89.303,43.017],"properties":{"Site Name":"Larson Park","County":"Dane","Sum":5,"status":"destroyed","protection":"unprotected"}},{"type":"Point","coordinates":[-89.697,43.034],"properties":{"Site Name":"Laufenburg","County":"Dane","Sum":3,"status":"intact","protection":"unprotected"}},{"type":"Point","coordinates":[-89.242,43.015],"properties":{"Site Name":"Lee","County":"Dane","Sum":5,"status":"destroyed","protection":"unprotected"}},{"type":"Point","coordinates":[-89.3,43.013],"properties":{"Site Name":"Lewis","County":"Dane","Sum":9,"status":"partially destroyed ","protection":"protected"}},{"type":"Point","coordinates":[-89.408,43.061],"properties":{"Site Name":"Lewis Effigy","County":"Dane","Sum":1,"status":"destroyed","protection":"unprotected"}},{"type":"Point","coordinates":[-89.63,43.055],"properties":{"Site Name":"Locke","County":"Dane","Sum":4,"status":"unknown","protection":"unprotected"}},{"type":"Point","coordinates":[-89.706,43.021],"properties":{"Site Name":"Lohff","County":"Dane","Sum":6,"status":"unknown","protection":"unprotected"}},{"type":"Point","coordinates":[-89.372,43.113],"properties":{"Site Name":"Maple Bluff","County":"Dane","Sum":22,"status":"destroyed","protection":"unprotected"}},{"type":"Point","coordinates":[-89.379,43.12],"properties":{"Site Name":"Maple Bluff #2","County":"Dane","Sum":18,"status":"unknown","protection":"unprotected"}},{"type":"Point","coordinates":[-89.334,43.008],"properties":{"Site Name":"McConnell","County":"Dane","Sum":17,"status":"intact","protection":"unprotected"}},{"type":"Point","coordinates":[-89.095,42.915],"properties":{"Site Name":"Melburg","County":"Dane","Sum":2,"status":"destroyed","protection":"unprotected"}},{"type":"Point","coordinates":[-89.38,43.13],"properties":{"Site Name":"Mendota Hills Bird","County":"Dane","Sum":6,"status":"destroyed","protection":"unprotected"}},{"type":"Point","coordinates":[-89.384,43.142],"properties":{"Site Name":"Mendota School","County":"Dane","Sum":1,"status":"destroyed","protection":"unprotected"}},{"type":"Point","coordinates":[-89.393,43.13],"properties":{"Site Name":"Mendota State Hospital","County":"Dane","Sum":22,"status":"partially destroyed ","protection":"protected"}},{"type":"Point","coordinates":[-89.474,43.087],"properties":{"Site Name":"Merrill Springs II","County":"Dane","Sum":18,"status":"intact ","protection":"protected"}},{"type":"Point","coordinates":[-89.641,43.048],"properties":{"Site Name":"Military Road Bear","County":"Dane","Sum":1,"status":"unknown","protection":"unprotected"}},{"type":"Point","coordinates":[-89.346,43.09],"properties":{"Site Name":"Mill Woods","County":"Dane","Sum":22,"status":"partially destroyed","protection":"unprotected"}},{"type":"Point","coordinates":[-89.384,43.071],"properties":{"Site Name":"Monona Avenue Park","County":"Dane","Sum":3,"status":"destroyed","protection":"unprotected"}},{"type":"Point","coordinates":[-89.324,43.077],"properties":{"Site Name":"Monona Drive","County":"Dane","Sum":26,"status":"destroyed","protection":"unprotected"}},{"type":"Point","coordinates":[-89.424,43.061],"properties":{"Site Name":"Monroe Street","County":"Dane","Sum":36,"status":"destroyed","protection":"unprotected"}},{"type":"Point","coordinates":[-89.248,43.019],"properties":{"Site Name":"Moore","County":"Dane","Sum":3,"status":"partially destroyed ","protection":"protected"}},{"type":"Point","coordinates":[-89.433,43.133],"properties":{"Site Name":"Morris Park 1/YMCA Cam","County":"Dane","Sum":7,"status":"intact","protection":"unprotected"}},{"type":"Point","coordinates":[-89.439,43.123],"properties":{"Site Name":"Morris Park 2","County":"Dane","Sum":13,"status":"intact ","protection":"protected"}},{"type":"Point","coordinates":[-89.226,43.001],"properties":{"Site Name":"ML Pleasant","County":"Dane","Sum":4,"status":"intact","protection":"unprotected"}},{"type":"Point","coordinates":[-89.396,43.055],"properties":{"Site Name":"Murphy Creek","County":"Dane","Sum":13,"status":"destroyed","protection":"unprotected"}},{"type":"Point","coordinates":[-89.566,43.004],"properties":{"Site Name":"Nine Mounds","County":"Dane","Sum":10,"status":"destroyed","protection":"unprotected"}},{"type":"Point","coordinates":[-89.029,42.861],"properties":{"Site Name":"Noe Springs","County":"Dane","Sum":70,"status":"partially destroyed","protection":"unprotected"}},{"type":"Point","coordinates":[-89.296,43.022],"properties":{"Site Name":"Nondahl","County":"Dane","Sum":3,"status":"partially destroyed","protection":"unprotected"}},{"type":"Point","coordinates":[-89.02,42.866],"properties":{"Site Name":"North","County":"Dane","Sum":1,"status":"destroyed","protection":"unprotected"}},{"type":"Point","coordinates":[-89.419,43.077],"properties":{"Site Name":"Observatory Hill","County":"Dane","Sum":5,"status":"destroyed","protection":"unprotected"}},{"type":"Point","coordinates":[-89.362,43.112],"properties":{"Site Name":"Oscar Meyer","County":"Dane","Sum":11,"status":"destroyed","protection":"unprotected"}},{"type":"Point","coordinates":[-89.483,43.131],"properties":{"Site Name":"Pheasant Branch Grove","County":"Dane","Sum":5,"status":"destroyed","protection":"unprotected"}},{"type":"Point","coordinates":[-89.426,43.077],"properties":{"Site Name":"Picnic Point Bay","County":"Dane","Sum":2,"status":"destroyed","protection":"unprotected"}},{"type":"Point","coordinates":[-89.651,43.04],"properties":{"Site Name":"Pine Bluff","County":"Dane","Sum":4,"status":"destroyed","protection":"unprotected"}},{"type":"Point","coordinates":[-89.461,43.055],"properties":{"Site Name":"Piper","County":"Dane","Sum":12,"status":"destroyed","protection":"unprotected"}},{"type":"Point","coordinates":[-89.163,43.236],"properties":{"Site Name":"Pleasant Springs","County":"Dane","Sum":6,"status":"partially destroyed","protection":"unprotected"}},{"type":"Point","coordinates":[-89.228,43.033],"properties":{"Site Name":"Roth","County":"Dane","Sum":1,"status":"destroyed","protection":"unprotected"}},{"type":"Point","coordinates":[-89.404,43.14],"properties":{"Site Name":"Sauterhoff","County":"Dane","Sum":1,"status":"intact","protection":"unprotected"}},{"type":"Point","coordinates":[-89.071,43.193],"properties":{"Site Name":"Shepards Marsh","County":"Dane","Sum":3,"status":"unknown","protection":"unprotected"}},{"type":"Point","coordinates":[-89.316,43.001],"properties":{"Site Name":"South Lake Waubesa","County":"Dane","Sum":6,"status":"destroyed","protection":"unprotected"}},{"type":"Point","coordinates":[-89.481,43.081],"properties":{"Site Name":"Spring Harbor","County":"Dane","Sum":5,"status":"partially destroyed","protection":"unprotected"}},{"type":"Point","coordinates":[-89.461,43.07],"properties":{"Site Name":"Stone Quarry","County":"Dane","Sum":5,"status":"unknown","protection":"unprotected"}},{"type":"Point","coordinates":[-89.36,43.11],"properties":{"Site Name":"Sugar Bush","County":"Dane","Sum":5,"status":"destroyed","protection":"unprotected"}},{"type":"Point","coordinates":[-89.287,43.005],"properties":{"Site Name":"Sure Johnson","County":"Dane","Sum":28,"status":"partially destroyed ","protection":"protected"}},{"type":"Point","coordinates":[-89.341,43.058],"properties":{"Site Name":"Third Lake","County":"Dane","Sum":1,"status":"unknown","protection":"unprotected"}},{"type":"Point","coordinates":[-89.361,43.102],"properties":{"Site Name":"Tracks","County":"Dane","Sum":2,"status":"unknown","protection":"unprotected"}},{"type":"Point","coordinates":[-89.428,43.083],"properties":{"Site Name":"University Ridge","County":"Dane","Sum":4,"status":"destroyed","protection":"unprotected"}},{"type":"Point","coordinates":[-89.358,43.016],"properties":{"Site Name":"Uphoff Ridge","County":"Dane","Sum":5,"status":"intact","protection":"unprotected"}},{"type":"Point","coordinates":[-89.417,43.069],"properties":{"Site Name":"Vilas Circle Drive","County":"Dane","Sum":3,"status":"partially destroyed ","protection":"protected"}},{"type":"Point","coordinates":[-89.419,43.06],"properties":{"Site Name":"Vilas Park","County":"Dane","Sum":11,"status":"partially destroyed ","protection":"protected"}},{"type":"Point","coordinates":[-89.277,42.964],"properties":{"Site Name":"W. E. Colladay","County":"Dane","Sum":9,"status":"intact ","protection":"protected"}},{"type":"Point","coordinates":[-89.307,43.006],"properties":{"Site Name":"Wa-che-et-cha","County":"Dane","Sum":3,"status":"partially destroyed","protection":"unprotected"}},{"type":"Point","coordinates":[-89.273,43.042],"properties":{"Site Name":"Ward","County":"Dane","Sum":8,"status":"partially destroyed","protection":"unprotected"}},{"type":"Point","coordinates":[-89.374,43.127],"properties":{"Site Name":"Warner Beach","County":"Dane","Sum":6,"status":"unknown","protection":"unprotected"}},{"type":"Point","coordinates":[-89.465,43.116],"properties":{"Site Name":"West Point","County":"Dane","Sum":7,"status":"unknown","protection":"unprotected"}},{"type":"Point","coordinates":[-89.24,42.972],"properties":{"Site Name":"Williams South #1","County":"Dane","Sum":3,"status":"unknown","protection":"unprotected"}},{"type":"Point","coordinates":[-89.236,42.974],"properties":{"Site Name":"Williams South #2","County":"Dane","Sum":11,"status":"partially destroyed","protection":"unprotected"}},{"type":"Point","coordinates":[-89.233,42.975],"properties":{"Site Name":"William's Woods","County":"Dane","Sum":8,"status":"unknown","protection":"unprotected"}},{"type":"Point","coordinates":[-89.336,43.032],"properties":{"Site Name":"Williamson 1","County":"Dane","Sum":8,"status":"unknown","protection":"unprotected"}},{"type":"Point","coordinates":[-89.327,43.021],"properties":{"Site Name":"Williamson Indian Cemetery","County":"Dane","Sum":2,"status":"destroyed","protection":"unprotected"}},{"type":"Point","coordinates":[-89.418,43.079],"properties":{"Site Name":"Willow Drive","County":"Dane","Sum":4,"status":"intact","protection":"unprotected"}},{"type":"Point","coordinates":[-89.433,43.053],"properties":{"Site Name":"Wingra","County":"Dane","Sum":16,"status":"destroyed","protection":"unprotected"}},{"type":"Point","coordinates":[-89.432,43.049],"properties":{"Site Name":"Wingra Park","County":"Dane","Sum":6,"status":"unknown","protection":"unprotected"}},{"type":"Point","coordinates":[-89.331,43.073],"properties":{"Site Name":"Winnequah Road","County":"Dane","Sum":3,"status":"unknown","protection":"unprotected"}},{"type":"Point","coordinates":[-89.388,43.13],"properties":{"Site Name":"Woodward Shores","County":"Dane","Sum":29,"status":"partially destroyed","protection":"unprotected"}},{"type":"Point","coordinates":[-89.4,43.13],"properties":{"Site Name":"Woodward Shores East","County":"Dane","Sum":10,"status":"destroyed","protection":"unprotected"}},{"type":"Point","coordinates":[-89.414,43.15],"properties":{"Site Name":"Yahara #1","County":"Dane","Sum":3,"status":"destroyed","protection":"unprotected"}},{"type":"Point","coordinates":[-89.386,43.16],"properties":{"Site Name":"Yahara Heights","County":"Dane","Sum":5,"status":"partially destroyed","protection":"unprotected"}},{"type":"Point","coordinates":[-89.326,43.055],"properties":{"Site Name":"Yahara Hoyt","County":"Dane","Sum":20,"status":"unknown","protection":"unprotected"}},{"type":"Point","coordinates":[-89.416,43.062],"properties":{"Site Name":"Zoo","County":"Dane","Sum":16,"status":"destroyed","protection":"unprotected"}},{"type":"Point","coordinates":[-89.729,43.384],"properties":{"Site Name":"Army Ordinance Plant","County":"Sauk","Sum":1,"status":"unknown","protection":"unprotected"}},{"type":"Point","coordinates":[-89.721,43.56],"properties":{"Site Name":"Atkinson","County":"Sauk","Sum":2,"status":"destroyed","protection":"unprotected"}},{"type":"Point","coordinates":[-89.932,43.204],"properties":{"Site Name":"Badger","County":"Sauk","Sum":5,"status":"destroyed","protection":"unprotected"}},{"type":"Point","coordinates":[-89.633,43.375],"properties":{"Site Name":"Bay","County":"Sauk","Sum":2,"status":"unknown","protection":"unprotected"}},{"type":"Point","coordinates":[-89.764,43.355],"properties":{"Site Name":"Big Badger Curve","County":"Sauk","Sum":6,"status":"unknown","protection":"unprotected"}},{"type":"Point","coordinates":[-89.769,43.469],"properties":{"Site Name":"Canfield","County":"Sauk","Sum":10,"status":"partially destroyed","protection":"unprotected"}},{"type":"Point","coordinates":[-89.673,43.48],"properties":{"Site Name":"Carlson","County":"Sauk","Sum":5,"status":"unknown","protection":"unprotected"}},{"type":"Point","coordinates":[-89.755,43.466],"properties":{"Site Name":"Case","County":"Sauk","Sum":13,"status":"destroyed","protection":"unprotected"}},{"type":"Point","coordinates":[-89.736,43.446],"properties":{"Site Name":"Cemetery","County":"Sauk","Sum":5,"status":"intact","protection":"unprotected"}},{"type":"Point","coordinates":[-89.693,43.468],"properties":{"Site Name":"Cook","County":"Sauk","Sum":3,"status":"intact","protection":"unprotected"}},{"type":"Point","coordinates":[-89.724,43.466],"properties":{"Site Name":"Cornfield","County":"Sauk","Sum":8,"status":"destroyed","protection":"unprotected"}},{"type":"Point","coordinates":[-89.724,43.469],"properties":{"Site Name":"Cornfield #2","County":"Sauk","Sum":13,"status":"unknown","protection":"unprotected"}},{"type":"Point","coordinates":[-89.735,43.466],"properties":{"Site Name":"Council House/Remington","County":"Sauk","Sum":68,"status":"unknown","protection":"unprotected"}},{"type":"Point","coordinates":[-89.73,43.468],"properties":{"Site Name":"Crandall","County":"Sauk","Sum":6,"status":"partially destroyed","protection":"unprotected"}},{"type":"Point","coordinates":[-89.808,43.605],"properties":{"Site Name":"Delton","County":"Sauk","Sum":2,"status":"unknown","protection":"unprotected"}},{"type":"Point","coordinates":[-89.725,43.411],"properties":{"Site Name":"Devil's Lake #1","County":"Sauk","Sum":1,"status":"intact ","protection":"protected"}},{"type":"Point","coordinates":[-89.735,43.432],"properties":{"Site Name":"Devil's Lake #2","County":"Sauk","Sum":8,"status":"intact ","protection":"protected"}},{"type":"Point","coordinates":[-89.668,43.4],"properties":{"Site Name":"Devil's Nose","County":"Sauk","Sum":1,"status":"unknown","protection":"unprotected"}},{"type":"Point","coordinates":[-89.734,43.453],"properties":{"Site Name":"Draper's Creek","County":"Sauk","Sum":5,"status":"unknown","protection":"unprotected"}},{"type":"Point","coordinates":[-89.649,43.38],"properties":{"Site Name":"Eagle (47-SK-0082)","County":"Sauk","Sum":2,"status":"partially destroyed","protection":"unprotected"}},{"type":"Point","coordinates":[-89.645,43.384],"properties":{"Site Name":"Eagle (47-SK-0094)","County":"Sauk","Sum":2,"status":"partially destroyed","protection":"unprotected"}},{"type":"Point","coordinates":[-89.624,43.487],"properties":{"Site Name":"Garrisonville Bear","County":"Sauk","Sum":2,"status":"destroyed","protection":"unprotected"}},{"type":"Point","coordinates":[-89.708,43.451],"properties":{"Site Name":"Glen Creek","County":"Sauk","Sum":3,"status":"destroyed","protection":"unprotected"}},{"type":"Point","coordinates":[-89.736,43.465],"properties":{"Site Name":"Glover","County":"Sauk","Sum":6,"status":"unknown","protection":"unprotected"}},{"type":"Point","coordinates":[-89.713,43.458],"properties":{"Site Name":"Greenfield","County":"Sauk","Sum":4,"status":"unknown","protection":"unprotected"}},{"type":"Point","coordinates":[-89.671,43.488],"properties":{"Site Name":"Greenfield Man Mound","County":"Sauk","Sum":1,"status":"partially destroyed","protection":"unprotected"}},{"type":"Point","coordinates":[-89.648,43.368],"properties":{"Site Name":"Gross","County":"Sauk","Sum":1,"status":"unknown","protection":"unprotected"}},{"type":"Point","coordinates":[-90.133,43.585],"properties":{"Site Name":"Hemlock","County":"Sauk","Sum":4,"status":"unknown","protection":"unprotected"}},{"type":"Point","coordinates":[-90.103,43.164],"properties":{"Site Name":"Hill","County":"Sauk","Sum":2,"status":"unknown","protection":"unprotected"}},{"type":"Point","coordinates":[-89.822,43.267],"properties":{"Site Name":"Honey Creek","County":"Sauk","Sum":14,"status":"destroyed","protection":"unprotected"}},{"type":"Point","coordinates":[-89.771,43.451],"properties":{"Site Name":"Howlett","County":"Sauk","Sum":20,"status":"destroyed","protection":"unprotected"}},{"type":"Point","coordinates":[-89.997,43.215],"properties":{"Site Name":"Hoxie","County":"Sauk","Sum":2,"status":"unknown","protection":"unprotected"}},{"type":"Point","coordinates":[-89.638,43.473],"properties":{"Site Name":"Jackson Creek","County":"Sauk","Sum":2,"status":"destroyed","protection":"unprotected"}},{"type":"Point","coordinates":[-89.705,43.559],"properties":{"Site Name":"Jantz","County":"Sauk","Sum":2,"status":"destroyed","protection":"unprotected"}},{"type":"Point","coordinates":[-89.779,43.347],"properties":{"Site Name":"Johnson","County":"Sauk","Sum":10,"status":"unknown","protection":"unprotected"}},{"type":"Point","coordinates":[-90.016,43.194],"properties":{"Site Name":"Jones","County":"Sauk","Sum":25,"status":"unknown","protection":"unprotected"}},{"type":"Point","coordinates":[-89.794,43.351],"properties":{"Site Name":"Kingston","County":"Sauk","Sum":54,"status":"unknown","protection":"unprotected"}},{"type":"Point","coordinates":[-89.682,43.366],"properties":{"Site Name":"Kruger Creek","County":"Sauk","Sum":27,"status":"destroyed","protection":"unprotected"}},{"type":"Point","coordinates":[-90.091,43.568],"properties":{"Site Name":"La Valle Man Mound","County":"Sauk","Sum":10,"status":"destroyed","protection":"unprotected"}},{"type":"Point","coordinates":[-89.685,43.461],"properties":{"Site Name":"Langdon","County":"Sauk","Sum":4,"status":"intact","protection":"unprotected"}},{"type":"Point","coordinates":[-89.689,43.38],"properties":{"Site Name":"Lapham","County":"Sauk","Sum":12,"status":"unknown","protection":"unprotected"}},{"type":"Point","coordinates":[-89.693,43.382],"properties":{"Site Name":"Lapham #2","County":"Sauk","Sum":23,"status":"unknown","protection":"unprotected"}},{"type":"Point","coordinates":[-89.685,43.515],"properties":{"Site Name":"Leach Creek","County":"Sauk","Sum":7,"status":"intact","protection":"unprotected"}},{"type":"Point","coordinates":[-89.689,43.457],"properties":{"Site Name":"Long Lizard","County":"Sauk","Sum":2,"status":"partially destroyed","protection":"unprotected"}},{"type":"Point","coordinates":[-89.739,43.595],"properties":{"Site Name":"Lower Dells","County":"Sauk","Sum":3,"status":"destroyed","protection":"unprotected"}},{"type":"Point","coordinates":[-89.736,43.444],"properties":{"Site Name":"Maple Grove","County":"Sauk","Sum":2,"status":"destroyed","protection":"unprotected"}},{"type":"Point","coordinates":[-89.997,43.219],"properties":{"Site Name":"May Be","County":"Sauk","Sum":1,"status":"unknown","protection":"unprotected"}},{"type":"Point","coordinates":[-89.689,43.479],"properties":{"Site Name":"McGann","County":"Sauk","Sum":1,"status":"unknown","protection":"unprotected"}},{"type":"Point","coordinates":[-89.706,43.487],"properties":{"Site Name":"McGilvra","County":"Sauk","Sum":3,"status":"unknown","protection":"unprotected"}},{"type":"Point","coordinates":[-89.648,43.375],"properties":{"Site Name":"Merrimac Moon","County":"Sauk","Sum":1,"status":"unknown","protection":"unprotected"}},{"type":"Point","coordinates":[-89.626,43.377],"properties":{"Site Name":"Merry Mac","County":"Sauk","Sum":1,"status":"unknown","protection":"unprotected"}},{"type":"Point","coordinates":[-89.705,43.384],"properties":{"Site Name":"Mink","County":"Sauk","Sum":3,"status":"destroyed","protection":"unprotected"}},{"type":"Point","coordinates":[-89.826,43.249],"properties":{"Site Name":"Mosley","County":"Sauk","Sum":15,"status":"unknown","protection":"unprotected"}},{"type":"Point","coordinates":[-89.659,43.363],"properties":{"Site Name":"Mother and Cub","County":"Sauk","Sum":2,"status":"intact","protection":"unprotected"}},{"type":"Point","coordinates":[-89.769,43.607],"properties":{"Site Name":"Newport","County":"Sauk","Sum":2,"status":"partially destroyed","protection":"unprotected"}},{"type":"Point","coordinates":[-90.032,43.192],"properties":{"Site Name":"Norton","County":"Sauk","Sum":3,"status":"unknown","protection":"unprotected"}},{"type":"Point","coordinates":[-90.081,43.56],"properties":{"Site Name":"Oak Hill","County":"Sauk","Sum":1,"status":"unknown","protection":"unprotected"}},{"type":"Point","coordinates":[-89.775,43.339],"properties":{"Site Name":"Otter Creek","County":"Sauk","Sum":4,"status":"unknown","protection":"unprotected"}},{"type":"Point","coordinates":[-89.635,43.377],"properties":{"Site Name":"Palisade","County":"Sauk","Sum":2,"status":"destroyed","protection":"unprotected"}},{"type":"Point","coordinates":[-90.086,43.612],"properties":{"Site Name":"Paddock","County":"Sauk","Sum":3,"status":"destroyed","protection":"unprotected"}},{"type":"Point","coordinates":[-89.988,43.216],"properties":{"Site Name":"Pass","County":"Sauk","Sum":1,"status":"unknown","protection":"unprotected"}},{"type":"Point","coordinates":[-89.819,43.265],"properties":{"Site Name":"Patterson","County":"Sauk","Sum":2,"status":"unknown","protection":"unprotected"}},{"type":"Point","coordinates":[-89.878,43.201],"properties":{"Site Name":"Pierce","County":"Sauk","Sum":6,"status":"partially destroyed","protection":"unprotected"}},{"type":"Point","coordinates":[-89.683,43.557],"properties":{"Site Name":"Poison","County":"Sauk","Sum":17,"status":"destroyed","protection":"unprotected"}},{"type":"Point","coordinates":[-89.657,43.545],"properties":{"Site Name":"Porter","County":"Sauk","Sum":8,"status":"destroyed","protection":"unprotected"}},{"type":"Point","coordinates":[-89.733,43.465],"properties":{"Site Name":"Potter","County":"Sauk","Sum":10,"status":"destroyed","protection":"unprotected"}},{"type":"Point","coordinates":[-89.772,43.266],"properties":{"Site Name":"Prairie","County":"Sauk","Sum":2,"status":"destroyed","protection":"unprotected"}},{"type":"Point","coordinates":[-90.006,43.218],"properties":{"Site Name":"Prairie Effigy","County":"Sauk","Sum":2,"status":"destroyed","protection":"unprotected"}},{"type":"Point","coordinates":[-89.848,43.3],"properties":{"Site Name":"Ragatz","County":"Sauk","Sum":25,"status":"destroyed","protection":"unprotected"}},{"type":"Point","coordinates":[-90.052,43.177],"properties":{"Site Name":"Rainbow","County":"Sauk","Sum":9,"status":"unknown","protection":"unprotected"}},{"type":"Point","coordinates":[-89.662,43.365],"properties":{"Site Name":"River Bank","County":"Sauk","Sum":8,"status":"unknown","protection":"unprotected"}},{"type":"Point","coordinates":[-89.799,43.26],"properties":{"Site Name":"Sauk Prairie","County":"Sauk","Sum":8,"status":"unknown","protection":"unprotected"}},{"type":"Point","coordinates":[-89.831,43.265],"properties":{"Site Name":"Saxer","County":"Sauk","Sum":4,"status":"destroyed","protection":"unprotected"}},{"type":"Point","coordinates":[-89.677,43.366],"properties":{"Site Name":"Searl's Creek","County":"Sauk","Sum":15,"status":"intact","protection":"unprotected"}},{"type":"Point","coordinates":[-89.697,43.367],"properties":{"Site Name":"Siebecker","County":"Sauk","Sum":28,"status":"unknown","protection":"unprotected"}},{"type":"Point","coordinates":[-89.779,43.457],"properties":{"Site Name":"Skillet's Creek","County":"Sauk","Sum":6,"status":"unknown","protection":"unprotected"}},{"type":"Point","coordinates":[-90.007,43.524],"properties":{"Site Name":"South Park","County":"Sauk","Sum":1,"status":"intact","protection":"unprotected"}},{"type":"Point","coordinates":[-89.749,43.457],"properties":{"Site Name":"South Side","County":"Sauk","Sum":7,"status":"destroyed","protection":"unprotected"}},{"type":"Point","coordinates":[-89.907,43.284],"properties":{"Site Name":"Sprecher","County":"Sauk","Sum":3,"status":"unknown","protection":"unprotected"}},{"type":"Point","coordinates":[-89.693,43.458],"properties":{"Site Name":"Spring Run","County":"Sauk","Sum":8,"status":"partially destroyed","protection":"unprotected"}},{"type":"Point","coordinates":[-89.738,43.567],"properties":{"Site Name":"Stage Road","County":"Sauk","Sum":11,"status":"destroyed","protection":"unprotected"}},{"type":"Point","coordinates":[-89.723,43.43],"properties":{"Site Name":"Terminal Moraine #1","County":"Sauk","Sum":5,"status":"partially destroyed","protection":"unprotected"}},{"type":"Point","coordinates":[-89.735,43.43],"properties":{"Site Name":"Terminal Moraine #2","County":"Sauk","Sum":2,"status":"intact","protection":"unprotected"}},{"type":"Point","coordinates":[-89.761,43.444],"properties":{"Site Name":"Tinkham","County":"Sauk","Sum":4,"status":"unknown","protection":"unprotected"}},{"type":"Point","coordinates":[-89.672,43.375],"properties":{"Site Name":"Train","County":"Sauk","Sum":3,"status":"unknown","protection":"unprotected"}},{"type":"Point","coordinates":[-89.748,43.459],"properties":{"Site Name":"Tyler","County":"Sauk","Sum":5,"status":"destroyed","protection":"unprotected"}},{"type":"Point","coordinates":[-89.767,43.476],"properties":{"Site Name":"Upper Mill Power","County":"Sauk","Sum":2,"status":"destroyed","protection":"unprotected"}},{"type":"Point","coordinates":[-89.836,43.265],"properties":{"Site Name":"Vonburn","County":"Sauk","Sum":11,"status":"partially destroyed","protection":"unprotected"}},{"type":"Point","coordinates":[-89.702,43.36],"properties":{"Site Name":"Wiegand Bay","County":"Sauk","Sum":6,"status":"unknown","protection":"unprotected"}},{"type":"Point","coordinates":[-89.738,43.467],"properties":{"Site Name":"Williams","County":"Sauk","Sum":6,"status":"destroyed","protection":"unprotected"}},{"type":"Point","coordinates":[-89.984,43.205],"properties":{"Site Name":"Wilson","County":"Sauk","Sum":2,"status":"destroyed","protection":"unprotected"}},{"type":"Point","coordinates":[-89.737,43.578],"properties":{"Site Name":"Wisconsin River","County":"Sauk","Sum":63,"status":"partially destroyed","protection":"unprotected"}},{"type":"Point","coordinates":[-89.848,43.475],"properties":{"Site Name":"Wyman","County":"Sauk","Sum":20,"status":"unknown","protection":"unprotected"}},{"type":"Point","coordinates":[-90.299,43.273],"properties":{"Site Name":"All Plowed","County":"Richland","Sum":12,"status":"unknown","protection":"unprotected"}},{"type":"Point","coordinates":[-90.481,43.225],"properties":{"Site Name":"Amalgamation Mound","County":"Richland","Sum":5,"status":"unknown","protection":"unprotected"}},{"type":"Point","coordinates":[-90.464,43.216],"properties":{"Site Name":"Armbuster","County":"Richland","Sum":8,"status":"destroyed","protection":"unprotected"}},{"type":"Point","coordinates":[-90.235,43.196],"properties":{"Site Name":"Bear Creek","County":"Richland","Sum":4,"status":"destroyed","protection":"unprotected"}},{"type":"Point","coordinates":[-90.299,43.215],"properties":{"Site Name":"Beckwith","County":"Richland","Sum":24,"status":"destroyed","protection":"unprotected"}},{"type":"Point","coordinates":[-90.431,43.224],"properties":{"Site Name":"Big Eagle Village","County":"Richland","Sum":29,"status":"unknown","protection":"unprotected"}},{"type":"Point","coordinates":[-90.401,43.211],"properties":{"Site Name":"Bremmer","County":"Richland","Sum":5,"status":"unknown","protection":"unprotected"}},{"type":"Point","coordinates":[-90.457,43.214],"properties":{"Site Name":"Clipped Wing","County":"Richland","Sum":2,"status":"partially destroyed","protection":"unprotected"}},{"type":"Point","coordinates":[-90.44,43.212],"properties":{"Site Name":"Confluence","County":"Richland","Sum":7,"status":"unknown","protection":"unprotected"}},{"type":"Point","coordinates":[-90.306,43.209],"properties":{"Site Name":"Conundrum","County":"Richland","Sum":16,"status":"unknown","protection":"unprotected"}},{"type":"Point","coordinates":[-90.468,43.22],"properties":{"Site Name":"Convocation","County":"Richland","Sum":1,"status":"destroyed","protection":"unprotected"}},{"type":"Point","coordinates":[-90.463,43.23],"properties":{"Site Name":"Creekside","County":"Richland","Sum":7,"status":"unknown","protection":"unprotected"}},{"type":"Point","coordinates":[-90.552,43.211],"properties":{"Site Name":"Cupp Mounds","County":"Richland","Sum":1,"status":"intact","protection":"unprotected"}},{"type":"Point","coordinates":[-90.633,43.499],"properties":{"Site Name":"Daggers and Does","County":"Richland","Sum":5,"status":"unknown","protection":"unprotected"}},{"type":"Point","coordinates":[-90.527,43.214],"properties":{"Site Name":"Dingman","County":"Richland","Sum":21,"status":"intact","protection":"unprotected"}},{"type":"Point","coordinates":[-90.314,43.277],"properties":{"Site Name":"Diving Birds","County":"Richland","Sum":6,"status":"unknown","protection":"unprotected"}},{"type":"Point","coordinates":[-90.217,43.214],"properties":{"Site Name":"Donner","County":"Richland","Sum":25,"status":"unknown","protection":"unprotected"}},{"type":"Point","coordinates":[-90.459,43.205],"properties":{"Site Name":"Eagle Township","County":"Richland","Sum":76,"status":"destroyed","protection":"unprotected"}},{"type":"Point","coordinates":[-90.462,43.223],"properties":{"Site Name":"Elder","County":"Richland","Sum":9,"status":"intact","protection":"unprotected"}},{"type":"Point","coordinates":[-90.596,43.199],"properties":{"Site Name":"Gasser","County":"Richland","Sum":1,"status":"intact","protection":"unprotected"}},{"type":"Point","coordinates":[-90.54,43.214],"properties":{"Site Name":"Hamilton","County":"Richland","Sum":5,"status":"intact","protection":"unprotected"}},{"type":"Point","coordinates":[-90.459,43.212],"properties":{"Site Name":"Hunting Eagle","County":"Richland","Sum":7,"status":"partially destroyed","protection":"unprotected"}},{"type":"Point","coordinates":[-90.246,43.21],"properties":{"Site Name":"Ketcham","County":"Richland","Sum":2,"status":"intact","protection":"unprotected"}},{"type":"Point","coordinates":[-90.451,43.215],"properties":{"Site Name":"Lone Eagle","County":"Richland","Sum":1,"status":"unknown","protection":"unprotected"}},{"type":"Point","coordinates":[-90.251,43.198],"properties":{"Site Name":"Lost Dog","County":"Richland","Sum":6,"status":"unknown","protection":"unprotected"}},{"type":"Point","coordinates":[-90.454,43.225],"properties":{"Site Name":"Lost Goose","County":"Richland","Sum":2,"status":"unknown","protection":"unprotected"}},{"type":"Point","coordinates":[-90.482,43.214],"properties":{"Site Name":"Man Mound","County":"Richland","Sum":7,"status":"unknown","protection":"unprotected"}},{"type":"Point","coordinates":[-90.484,43.213],"properties":{"Site Name":"Marsh Eagle","County":"Richland","Sum":4,"status":"unknown","protection":"unprotected"}},{"type":"Point","coordinates":[-90.47,43.219],"properties":{"Site Name":"McClary I","County":"Richland","Sum":14,"status":"destroyed","protection":"unprotected"}},{"type":"Point","coordinates":[-90.472,43.215],"properties":{"Site Name":"McClary 2","County":"Richland","Sum":2,"status":"destroyed","protection":"unprotected"}},{"type":"Point","coordinates":[-90.474,43.208],"properties":{"Site Name":"McClary 3","County":"Richland","Sum":6,"status":"destroyed","protection":"unprotected"}},{"type":"Point","coordinates":[-90.436,43.211],"properties":{"Site Name":"Meridian","County":"Richland","Sum":9,"status":"unknown","protection":"unprotected"}},{"type":"Point","coordinates":[-90.313,43.272],"properties":{"Site Name":"Mink Escape","County":"Richland","Sum":5,"status":"unknown","protection":"unprotected"}},{"type":"Point","coordinates":[-90.277,43.304],"properties":{"Site Name":"Nebraska Hollow","County":"Richland","Sum":1,"status":"unknown","protection":"unprotected"}},{"type":"Point","coordinates":[-90.299,43.212],"properties":{"Site Name":"Old Channel","County":"Richland","Sum":20,"status":"destroyed","protection":"unprotected"}},{"type":"Point","coordinates":[-90.442,43.212],"properties":{"Site Name":"Old Road","County":"Richland","Sum":8,"status":"unknown","protection":"unprotected"}},{"type":"Point","coordinates":[-90.312,43.209],"properties":{"Site Name":"Pine River Enclosure","County":"Richland","Sum":12,"status":"unknown","protection":"unprotected"}},{"type":"Point","coordinates":[-90.445,43.264],"properties":{"Site Name":"Pleasant Valley School","County":"Richland","Sum":1,"status":"intact","protection":"unprotected"}},{"type":"Point","coordinates":[-90.666,43.195],"properties":{"Site Name":"Port Andrews","County":"Richland","Sum":34,"status":"intact","protection":"unprotected"}},{"type":"Point","coordinates":[-90.484,43.212],"properties":{"Site Name":"Quarter Post Bird","County":"Richland","Sum":1,"status":"unknown","protection":"unprotected"}},{"type":"Point","coordinates":[-90.442,43.209],"properties":{"Site Name":"Raptor","County":"Richland","Sum":31,"status":"unknown","protection":"unprotected"}},{"type":"Point","coordinates":[-90.441,43.212],"properties":{"Site Name":"Schaeffer","County":"Richland","Sum":14,"status":"partially destroyed","protection":"unprotected"}},{"type":"Point","coordinates":[-90.315,43.268],"properties":{"Site Name":"Smoking Birds","County":"Richland","Sum":38,"status":"unknown","protection":"unprotected"}},{"type":"Point","coordinates":[-90.456,43.225],"properties":{"Site Name":"Spur","County":"Richland","Sum":4,"status":"unknown","protection":"unprotected"}},{"type":"Point","coordinates":[-90.299,43.231],"properties":{"Site Name":"Stiles #1","County":"Richland","Sum":2,"status":"unknown","protection":"unprotected"}},{"type":"Point","coordinates":[-90.427,43.203],"properties":{"Site Name":"Troller Mounds","County":"Richland","Sum":13,"status":"destroyed","protection":"unprotected"}},{"type":"Point","coordinates":[-90.412,43.204],"properties":{"Site Name":"Twin Lizard/Catfish","County":"Richland","Sum":18,"status":"destroyed","protection":"unprotected"}},{"type":"Point","coordinates":[-90.543,43.216],"properties":{"Site Name":"Wade","County":"Richland","Sum":13,"status":"intact","protection":"unprotected"}},{"type":"Point","coordinates":[-90.592,43.215],"properties":{"Site Name":"Wanek","County":"Richland","Sum":1,"status":"unknown","protection":"unprotected"}},{"type":"Point","coordinates":[-90.306,43.275],"properties":{"Site Name":"Waterbirds","County":"Richland","Sum":8,"status":"unknown","protection":"unprotected"}},{"type":"Point","coordinates":[-90.502,43.213],"properties":{"Site Name":"William Thompson 1","County":"Richland","Sum":10,"status":"destroyed","protection":"unprotected"}},{"type":"Point","coordinates":[-90.502,43.21],"properties":{"Site Name":"William Thompson 2","County":"Richland","Sum":4,"status":"destroyed","protection":"unprotected"}},{"type":"Point","coordinates":[-90.468,43.228],"properties":{"Site Name":"Wolf","County":"Richland","Sum":8,"status":"destroyed","protection":"unprotected"}},{"type":"Point","coordinates":[-91.101,43.004],"properties":{"Site Name":"A-15","County":"Crawford","Sum":4,"status":"destroyed","protection":"unprotected"}},{"type":"Point","coordinates":[-91.069,42.993],"properties":{"Site Name":"A-16","County":"Crawford","Sum":3,"status":"unknown","protection":"unprotected"}},{"type":"Point","coordinates":[-90.798,43.368],"properties":{"Site Name":"A-17","County":"Crawford","Sum":13,"status":"destroyed","protection":"unprotected"}},{"type":"Point","coordinates":[-90.766,43.408],"properties":{"Site Name":"A-18","County":"Crawford","Sum":5,"status":"destroyed","protection":"unprotected"}},{"type":"Point","coordinates":[-90.888,43.18],"properties":{"Site Name":"A-19","County":"Crawford","Sum":7,"status":"destroyed","protection":"unprotected"}},{"type":"Point","coordinates":[-91.038,43.129],"properties":{"Site Name":"A-20","County":"Crawford","Sum":1,"status":"destroyed","protection":"unprotected"}},{"type":"Point","coordinates":[-91.035,43.243],"properties":{"Site Name":"A-21","County":"Crawford","Sum":2,"status":"destroyed","protection":"unprotected"}},{"type":"Point","coordinates":[-90.828,43.359],"properties":{"Site Name":"A-23","County":"Crawford","Sum":2,"status":"destroyed","protection":"unprotected"}},{"type":"Point","coordinates":[-90.819,43.359],"properties":{"Site Name":"A-24","County":"Crawford","Sum":2,"status":"destroyed","protection":"unprotected"}},{"type":"Point","coordinates":[-91.058,43.238],"properties":{"Site Name":"Armstrong","County":"Crawford","Sum":12,"status":"destroyed","protection":"unprotected"}},{"type":"Point","coordinates":[-91.038,43.166],"properties":{"Site Name":"Batavia Bear","County":"Crawford","Sum":1,"status":"destroyed","protection":"unprotected"}},{"type":"Point","coordinates":[-90.814,43.357],"properties":{"Site Name":"Bear Creek","County":"Crawford","Sum":4,"status":"destroyed","protection":"unprotected"}},{"type":"Point","coordinates":[-91.138,43.158],"properties":{"Site Name":"Beckett #5","County":"Crawford","Sum":8,"status":"intact","protection":"unprotected"}},{"type":"Point","coordinates":[-91.033,43.158],"properties":{"Site Name":"Black Oats","County":"Crawford","Sum":10,"status":"unknown","protection":"unprotected"}},{"type":"Point","coordinates":[-90.869,43.252],"properties":{"Site Name":"Blackhawk Mounds","County":"Crawford","Sum":2,"status":"unknown","protection":"unprotected"}},{"type":"Point","coordinates":[-91.057,43.006],"properties":{"Site Name":"Bridgeport","County":"Crawford","Sum":2,"status":"destroyed","protection":"unprotected"}},{"type":"Point","coordinates":[-90.729,43.143],"properties":{"Site Name":"Bryan","County":"Crawford","Sum":5,"status":"intact","protection":"unprotected"}},{"type":"Point","coordinates":[-91.1495406,43.0707532],"properties":{"Site Name":"Calvary Cemetery Mound","County":"Crawford","Sum":3,"status":"unknown","protection":"unprotected"}},{"type":"Point","coordinates":[-91.136,43.079],"properties":{"Site Name":"Camel Mound","County":"Crawford","Sum":1,"status":"unknown","protection":"unprotected"}},{"type":"Point","coordinates":[-91.126,43.086],"properties":{"Site Name":"Campbell Coulee I","County":"Crawford","Sum":18,"status":"unknown","protection":"unprotected"}},{"type":"Point","coordinates":[-91.116,43.088],"properties":{"Site Name":"Campbell Coulee II","County":"Crawford","Sum":5,"status":"unknown","protection":"unprotected"}},{"type":"Point","coordinates":[-91.094,43.209],"properties":{"Site Name":"Caya","County":"Crawford","Sum":1,"status":"unknown","protection":"unprotected"}},{"type":"Point","coordinates":[-90.832,43.093],"properties":{"Site Name":"Christianson I","County":"Crawford","Sum":3,"status":"destroyed","protection":"unprotected"}},{"type":"Point","coordinates":[-90.987,43.036],"properties":{"Site Name":"Cipra","County":"Crawford","Sum":21,"status":"destroyed","protection":"unprotected"}},{"type":"Point","coordinates":[-90.879,43.202],"properties":{"Site Name":"Citron Valley","County":"Crawford","Sum":2,"status":"destroyed","protection":"unprotected"}},{"type":"Point","coordinates":[-91.053,43.317],"properties":{"Site Name":"Copper Creek II","County":"Crawford","Sum":29,"status":"destroyed","protection":"unprotected"}},{"type":"Point","coordinates":[-91.107,43.004],"properties":{"Site Name":"Dahmen I","County":"Crawford","Sum":16,"status":"destroyed","protection":"unprotected"}},{"type":"Point","coordinates":[-91.042,43.127],"properties":{"Site Name":"Dividing Ridge/Hazens Corners","County":"Crawford","Sum":31,"status":"unknown","protection":"unprotected"}},{"type":"Point","coordinates":[-90.71,43.169],"properties":{"Site Name":"Dremsa","County":"Crawford","Sum":2,"status":"destroyed","protection":"unprotected"}},{"type":"Point","coordinates":[-91.127,43.152],"properties":{"Site Name":"Du Charme Split","County":"Crawford","Sum":3,"status":"destroyed","protection":"unprotected"}},{"type":"Point","coordinates":[-90.843,43.311],"properties":{"Site Name":"Fairground","County":"Crawford","Sum":14,"status":"destroyed","protection":"unprotected"}},{"type":"Point","coordinates":[-91.046,43.123],"properties":{"Site Name":"Famechon Ridge","County":"Crawford","Sum":2,"status":"destroyed","protection":"unprotected"}},{"type":"Point","coordinates":[-91.029,43.291],"properties":{"Site Name":"Fischer I","County":"Crawford","Sum":9,"status":"intact","protection":"unprotected"}},{"type":"Point","coordinates":[-91.053,43.223],"properties":{"Site Name":"Foley I","County":"Crawford","Sum":10,"status":"intact ","protection":"protected"}},{"type":"Point","coordinates":[-90.793,43.391],"properties":{"Site Name":"Foot of the Hill","County":"Crawford","Sum":13,"status":"destroyed","protection":"unprotected"}},{"type":"Point","coordinates":[-91.097,43.158],"properties":{"Site Name":"Four Kites","County":"Crawford","Sum":4,"status":"destroyed","protection":"unprotected"}},{"type":"Point","coordinates":[-90.853,43.314],"properties":{"Site Name":"Gays Mills","County":"Crawford","Sum":4,"status":"unknown","protection":"unprotected"}},{"type":"Point","coordinates":[-91.109,43.009],"properties":{"Site Name":"Gravel Pit I","County":"Crawford","Sum":8,"status":"unknown","protection":"unprotected"}},{"type":"Point","coordinates":[-91.114,43.011],"properties":{"Site Name":"Gravel Pit II","County":"Crawford","Sum":25,"status":"destroyed","protection":"unprotected"}},{"type":"Point","coordinates":[-90.869,43.203],"properties":{"Site Name":"Hogback I","County":"Crawford","Sum":8,"status":"unknown","protection":"unprotected"}},{"type":"Point","coordinates":[-90.869,43.193],"properties":{"Site Name":"Hogback II","County":"Crawford","Sum":5,"status":"unknown","protection":"unprotected"}},{"type":"Point","coordinates":[-90.87,43.192],"properties":{"Site Name":"Hogback III","County":"Crawford","Sum":3,"status":"unknown","protection":"unprotected"}},{"type":"Point","coordinates":[-91.086,43.158],"properties":{"Site Name":"Interested Bear","County":"Crawford","Sum":1,"status":"destroyed","protection":"unprotected"}},{"type":"Point","coordinates":[-90.839,43.295],"properties":{"Site Name":"Kickapoo River Road","County":"Crawford","Sum":4,"status":"unknown","protection":"unprotected"}},{"type":"Point","coordinates":[-90.838,43.348],"properties":{"Site Name":"Knoble","County":"Crawford","Sum":17,"status":"unknown","protection":"unprotected"}},{"type":"Point","coordinates":[-91.1,43.405],"properties":{"Site Name":"Knower","County":"Crawford","Sum":1,"status":"destroyed","protection":"unprotected"}},{"type":"Point","coordinates":[-90.892,43.406],"properties":{"Site Name":"Lennon Ridge","County":"Crawford","Sum":28,"status":"unknown","protection":"unprotected"}},{"type":"Point","coordinates":[-91.101,43.002],"properties":{"Site Name":"Level Plat","County":"Crawford","Sum":1,"status":"unknown","protection":"unprotected"}},{"type":"Point","coordinates":[-91.136,43.085],"properties":{"Site Name":"Limery Coulee II","County":"Crawford","Sum":2,"status":"destroyed","protection":"unprotected"}},{"type":"Point","coordinates":[-91.046,43.347],"properties":{"Site Name":"Metz","County":"Crawford","Sum":2,"status":"intact","protection":"unprotected"}},{"type":"Point","coordinates":[-90.839,43.274],"properties":{"Site Name":"Petersburg","County":"Crawford","Sum":2,"status":"unknown","protection":"unprotected"}},{"type":"Point","coordinates":[-91.153,43.136],"properties":{"Site Name":"Picatee Coulee I","County":"Crawford","Sum":4,"status":"destroyed","protection":"unprotected"}},{"type":"Point","coordinates":[-90.836,43.092],"properties":{"Site Name":"Pomerening","County":"Crawford","Sum":6,"status":"intact","protection":"unprotected"}},{"type":"Point","coordinates":[-91.114,43.037],"properties":{"Site Name":"Prairie du Chien","County":"Crawford","Sum":2,"status":"unknown","protection":"unprotected"}},{"type":"Point","coordinates":[-90.803,43.387],"properties":{"Site Name":"PSA","County":"Crawford","Sum":21,"status":"unknown","protection":"unprotected"}},{"type":"Point","coordinates":[-90.71,43.166],"properties":{"Site Name":"Richland Creek","County":"Crawford","Sum":1,"status":"unknown","protection":"unprotected"}},{"type":"Point","coordinates":[-91.021,43.38],"properties":{"Site Name":"Roosa","County":"Crawford","Sum":1,"status":"unknown","protection":"unprotected"}},{"type":"Point","coordinates":[-91.07,43.226],"properties":{"Site Name":"Roy Peterson","County":"Crawford","Sum":5,"status":"intact","protection":"unprotected"}},{"type":"Point","coordinates":[-91.153,43.375],"properties":{"Site Name":"Rush Creek Effigy","County":"Crawford","Sum":1,"status":"unknown","protection":"unprotected"}},{"type":"Point","coordinates":[-91.152,43.374],"properties":{"Site Name":"Rush Creek I","County":"Crawford","Sum":39,"status":"intact","protection":"unprotected"}},{"type":"Point","coordinates":[-91.147,43.376],"properties":{"Site Name":"Rush Creek II","County":"Crawford","Sum":2,"status":"unknown","protection":"unprotected"}},{"type":"Point","coordinates":[-90.84,43.286],"properties":{"Site Name":"Sand Creek","County":"Crawford","Sum":8,"status":"unknown","protection":"unprotected"}},{"type":"Point","coordinates":[-90.84,43.285],"properties":{"Site Name":"Sand Hill Road Spring","County":"Crawford","Sum":3,"status":"unknown","protection":"unprotected"}},{"type":"Point","coordinates":[-91.109,43.023],"properties":{"Site Name":"Selch I","County":"Crawford","Sum":3,"status":"intact","protection":"unprotected"}},{"type":"Point","coordinates":[-90.797,43.393],"properties":{"Site Name":"Sherry I","County":"Crawford","Sum":18,"status":"unknown","protection":"unprotected"}},{"type":"Point","coordinates":[-91.032,43.01],"properties":{"Site Name":"Slough","County":"Crawford","Sum":22,"status":"destroyed","protection":"unprotected"}},{"type":"Point","coordinates":[-91.035,43.283],"properties":{"Site Name":"Smith II","County":"Crawford","Sum":1,"status":"unknown","protection":"unprotected"}},{"type":"Point","coordinates":[-90.815,43.359],"properties":{"Site Name":"Smith Hollow","County":"Crawford","Sum":19,"status":"destroyed","protection":"unprotected"}},{"type":"Point","coordinates":[-91.133,43.166],"properties":{"Site Name":"Soaring Buzzard","County":"Crawford","Sum":1,"status":"intact","protection":"unprotected"}},{"type":"Point","coordinates":[-90.767,43.402],"properties":{"Site Name":"Soldier's Grove","County":"Crawford","Sum":20,"status":"destroyed","protection":"unprotected"}},{"type":"Point","coordinates":[-90.838,43.356],"properties":{"Site Name":"Straight Line","County":"Crawford","Sum":5,"status":"unknown","protection":"unprotected"}},{"type":"Point","coordinates":[-90.89,43.125],"properties":{"Site Name":"Straka","County":"Crawford","Sum":1,"status":"intact","protection":"unprotected"}},{"type":"Point","coordinates":[-91.013,43.153],"properties":{"Site Name":"Strong Swallow","County":"Crawford","Sum":1,"status":"unknown","protection":"unprotected"}},{"type":"Point","coordinates":[-91.048,43.212],"properties":{"Site Name":"Strong's Man Mound","County":"Crawford","Sum":1,"status":"unknown","protection":"unprotected"}},{"type":"Point","coordinates":[-91.037,43.272],"properties":{"Site Name":"Sully","County":"Crawford","Sum":1,"status":"intact","protection":"unprotected"}},{"type":"Point","coordinates":[-91.012,43.198],"properties":{"Site Name":"Swatek Ridge","County":"Crawford","Sum":18,"status":"unknown","protection":"unprotected"}},{"type":"Point","coordinates":[-91.108,43.201],"properties":{"Site Name":"Varo","County":"Crawford","Sum":3,"status":"intact","protection":"unprotected"}},{"type":"Point","coordinates":[-91.149,43.009],"properties":{"Site Name":"Vilas/Flucke","County":"Crawford","Sum":62,"status":"partially destroyed","protection":"unprotected"}},{"type":"Point","coordinates":[-91.067,43.187],"properties":{"Site Name":"Wall Ridge","County":"Crawford","Sum":1,"status":"unknown","protection":"unprotected"}},{"type":"Point","coordinates":[-91.111,43.201],"properties":{"Site Name":"Wall-Smethurst","County":"Crawford","Sum":12,"status":"unknown","protection":"unprotected"}},{"type":"Point","coordinates":[-91.054,43.243],"properties":{"Site Name":"Wallin I","County":"Crawford","Sum":3,"status":"unknown","protection":"unprotected"}},{"type":"Point","coordinates":[-90.869,43.095],"properties":{"Site Name":"Wauzeka Ridge I","County":"Crawford","Sum":2,"status":"unknown","protection":"unprotected"}},{"type":"Point","coordinates":[-90.873,43.094],"properties":{"Site Name":"Wauzeka Ridge II","County":"Crawford","Sum":3,"status":"unknown","protection":"unprotected"}},{"type":"Point","coordinates":[-90.879,43.085],"properties":{"Site Name":"Wauzeka Terrace East","County":"Crawford","Sum":4,"status":"unknown","protection":"unprotected"}},{"type":"Point","coordinates":[-90.92,43.084],"properties":{"Site Name":"Wauzeka Terrace West","County":"Crawford","Sum":4,"status":"unknown","protection":"unprotected"}},{"type":"Point","coordinates":[-90.812,43.361],"properties":{"Site Name":"X-131","County":"Crawford","Sum":8,"status":"destroyed","protection":"unprotected"}},{"type":"Point","coordinates":[-91.106,43.137],"properties":{"Site Name":"Zinkle I","County":"Crawford","Sum":2,"status":"destroyed","protection":"unprotected"}},{"type":"Point","coordinates":[-91.2006,43.0892],"properties":{"Site Name":"Effigy Mounds National Monument","County":"Iowa State","Sum":206,"status":"Intact","protection":"protected"}}]}}}