[{"type":"Feature","properties":{"ID":1,"Name":"Chimborazo"},"geometry":{"type":"Point","coordinates":[-78.8175,-1.46917]}},{"type":"Feature","properties":{"ID":2,"Name":"Nanda Devi"},"geometry":{"type":"Point","coordinates":[79.97083,30.37583]}},{"type":"Feature","properties":{"ID":3,"Name":"Dhaulagiri"},"geometry":{"type":"Point","coordinates":[83.4875,28.69833]}},{"type":"Feature","properties":{"ID":4,"Name":"Kanchenjunga"},"geometry":{"type":"Point","coordinates":[88.14833,27.7025]}},{"type":"Feature","properties":{"ID":5,"Name":"Mount Everest"},"geometry":{"type":"Point","coordinates":[86.92528,27.98806]}},{"type":"Feature","properties":{"ID":6,"Name":"Mount Hood"},"geometry":{"type":"Point","coordinates":[-121.69583,45.37361]}},{"type":"Feature","properties":{"ID":7,"Name":"K2"},"geometry":{"type":"Point","coordinates":[76.51333,35.8825]}},{"type":"Feature","properties":{"ID":8,"Name":"Olympus Mons"},"geometry":{"type":"Point","coordinates":[0.1,0.1]}}];