{"type":"Topology","arcs":[],"objects":{"Museumlocations":{"type":"GeometryCollection","geometries":[{"type":"Point","coordinates":[-90.599,41.532],"properties":{"name":"Putnam","Institution":"Putnam Museum of History and Natural Science"}},{"type":"Point","coordinates":[-87.615392,41.866963],"properties":{"name":"Field","Institution":"Field Museum of Natural History"}},{"type":"Point","coordinates":[-87.615392,41.866963],"properties":{"name":"Field","Institution":"Field Museum of Natural History"}},{"type":"Point","coordinates":[-85.911,40.155],"properties":{"name":"WashingtonCountyHistSoc","Institution":"Washington County Historical Society"}},{"type":"Point","coordinates":[-85.911,40.155],"properties":{"name":"WashingtonCountyHistSoc","Institution":"Washington County Historical Society"}},{"type":"Point","coordinates":[-71.113127,42.3788],"properties":{"name":"HarvardPeabody","Institution":"Harvard University Peabody Museum of Archaeology and Ethnology"}},{"type":"Point","coordinates":[-71.113127,42.3788],"properties":{"name":"HarvardPeabody","Institution":"Harvard University Peabody Museum of Archaeology and Ethnology"}},{"type":"Point","coordinates":[-71.113127,42.3788],"properties":{"name":"HarvardPeabody","Institution":"Harvard University Peabody Museum of Archaeology and Ethnology"}},{"type":"Point","coordinates":[-71.113127,42.3788],"properties":{"name":"HarvardPeabody","Institution":"Harvard University Peabody Museum of Archaeology and Ethnology"}},{"type":"Point","coordinates":[-71.113127,42.3788],"properties":{"name":"HarvardPeabody","Institution":"Harvard University Peabody Museum of Archaeology and Ethnology"}},{"type":"Point","coordinates":[-71.113127,42.3788],"properties":{"name":"HarvardPeabody","Institution":"Harvard University Peabody Museum of Archaeology and Ethnology"}},{"type":"Point","coordinates":[-71.113127,42.3788],"properties":{"name":"HarvardPeabody","Institution":"Harvard University Peabody Museum of Archaeology and Ethnology"}},{"type":"Point","coordinates":[-71.113127,42.3788],"properties":{"name":"HarvardPeabody","Institution":"Harvard University Peabody Museum of Archaeology and Ethnology"}},{"type":"Point","coordinates":[-71.113127,42.3788],"properties":{"name":"HarvardPeabody","Institution":"Harvard University Peabody Museum of Archaeology and Ethnology"}},{"type":"Point","coordinates":[-71.113127,42.3788],"properties":{"name":"HarvardPeabody","Institution":"Harvard University Peabody Museum of Archaeology and Ethnology"}},{"type":"Point","coordinates":[-71.113127,42.3788],"properties":{"name":"HarvardPeabody","Institution":"Harvard University Peabody Museum of Archaeology and Ethnology"}},{"type":"Point","coordinates":[-71.113127,42.3788],"properties":{"name":"HarvardPeabody","Institution":"Harvard University Peabody Museum of Archaeology and Ethnology"}},{"type":"Point","coordinates":[-77.0517,39.009817],"properties":{"name":"USDDHAMuseumOfHealthAndMedicine","Institution":"U.S. Dept. of Defense Defense Health Agency National Museum of Health and Medicine"}},{"type":"Point","coordinates":[-85.67422,39.009817],"properties":{"name":"GrandRapidsPublicMuseum","Institution":"Grand Rapids Public Museum (formerly Public Museum of West Michigan)"}},{"type":"Point","coordinates":[-83.735303,42.276358],"properties":{"name":"UniOfMichiganMuseumOfAnthropology","Institution":"Univ. of Michigan Museum of Anthropology"}},{"type":"Point","coordinates":[-85.67422,42.96614],"properties":{"name":"GrandRapidsPublicMuseum","Institution":"Grand Rapids Public Museum (formerly Public Museum of West Michigan)"}},{"type":"Point","coordinates":[-85.67422,42.96614],"properties":{"name":"GrandRapidsPublicMuseum","Institution":"Grand Rapids Public Museum (formerly Public Museum of West Michigan)"}},{"type":"Point","coordinates":[-77.0517,39.009817],"properties":{"name":"USDeptDefenseStPaul","Institution":"U.S. Dept. of Defense St. Paul District"}},{"type":"Point","coordinates":[-77.0517,39.009817],"properties":{"name":"USDeptDefenseStPaul","Institution":"U.S. Dept. of Defense St. Paul District"}},{"type":"Point","coordinates":[-84.19938,39.789527],"properties":{"name":"DaytonMuseumOfNaturalHistory","Institution":"Dayton Museum of Natural History"}},{"type":"Point","coordinates":[-75.1896,39.9505],"properties":{"name":"UPennMuseumOfArchAndAnthro","Institution":"Univ. of Pennsylvania Museum of Archaeology and Anthropology"}},{"type":"Point","coordinates":[-75.1896,39.9505],"properties":{"name":"UPennMuseumOfArchAndAnthro","Institution":"Univ. of Pennsylvania Museum of Archaeology and Anthropology"}},{"type":"Point","coordinates":[-75.1896,39.9505],"properties":{"name":"UPennMuseumOfArchAndAnthro","Institution":"Univ. of Pennsylvania Museum of Archaeology and Anthropology"}},{"type":"Point","coordinates":[-83.9248,35.9528],"properties":{"name":"UTennFrankMcClungMuseum","Institution":"Univ. of Tennessee Frank H. McClung Museum"}},{"type":"Point","coordinates":[-89.0303,42.503],"properties":{"name":"BeloitLoganMuseumOfAnthropology","Institution":"Beloit College Logan Museum of Anthropology"}},{"type":"Point","coordinates":[-87.92091,43.040866],"properties":{"name":"MilwaukeePublicMuseum","Institution":"Milwaukee Public Museum"}}]}}}